,City,Cloudiness,Country,Date,Humidity,Lat,Lng,Max Temp,Wind Speed
0,Vaini,48,IN,1538233730,96,15.34,74.49,22.96,0.46
1,Atuona,0,PF,1538233617,100,-9.8,-139.03,26.21,5.01
2,Port Alfred,0,ZA,1538233730,78,-33.59,26.89,19.06,3.51
3,Alofi,56,NU,1538229600,83,-19.06,-169.92,23.0,4.6
4,Morondava,32,MG,1538233730,78,-20.3,44.28,26.86,4.46
5,Atambua,0,ID,1538233730,99,-9.11,124.89,25.31,2.26
6,Ketchikan,1,US,1538230320,79,55.34,-131.65,15.6,5.1
7,Cap Malheureux,75,MU,1538229600,78,-19.98,57.61,23.0,6.7
8,Rikitea,76,PF,1538233731,100,-23.12,-134.97,21.96,2.56
9,Thompson,90,CA,1538229600,99,55.74,-97.86,0.0,4.1
10,Qaanaaq,76,GL,1538233731,100,77.48,-69.36,-5.99,2.56
11,Makakilo City,1,US,1538229420,96,21.35,-158.09,25.0,2.66
12,Khatanga,12,RU,1538233732,89,71.98,102.47,3.86,6.11
13,Amahai,44,ID,1538233732,100,-3.31,129.0,27.41,7.11
14,Bluff,20,AU,1538233732,68,-23.58,149.07,18.96,3.01
15,New Norfolk,40,AU,1538231400,70,-42.78,147.06,9.0,4.1
16,Provideniya,92,RU,1538233732,86,64.42,-173.23,9.41,10.81
17,Saldanha,0,PT,1538233732,39,41.42,-6.55,27.41,1.76
18,Fowa,20,NG,1538233732,84,8.92,6.4,30.66,1.61
19,Levokumskoye,0,RU,1538233732,52,44.82,44.66,19.36,2.76
20,Busselton,68,AU,1538233733,100,-33.64,115.35,14.21,7.06
21,Ribeira Grande,40,PT,1538231400,57,38.52,-28.7,24.0,8.2
22,Zhanaozen,36,KZ,1538233733,36,43.35,52.85,21.36,3.46
23,Puerto Baquerizo Moreno,75,EC,1538229600,88,-0.9,-89.6,22.0,5.7
24,Honiara,40,SB,1538229600,100,-9.43,159.96,24.0,1.5
25,Cape Town,0,ZA,1538229600,43,-33.93,18.42,22.0,3.6
26,Cayenne,75,GF,1538231400,62,4.94,-52.33,31.0,4.1
27,Mar del Plata,0,AR,1538233734,48,-46.43,-67.52,12.56,8.46
28,Lorengau,0,PG,1538233734,100,-2.02,147.27,28.61,4.06
29,Mataura,92,NZ,1538233734,97,-46.19,168.86,6.96,1.11
30,Gadsden,1,US,1538231700,94,34.01,-86.01,23.7,1.61
31,Lata,0,IN,1538233734,100,30.78,78.62,10.61,0.81
32,Hobart,40,AU,1538231400,70,-42.88,147.33,9.0,4.1
33,Podporozhye,0,RU,1538233471,63,60.91,34.16,3.76,3.56
34,Punta Arenas,20,CL,1538229600,65,-53.16,-70.91,5.0,5.7
35,Guatire,40,VE,1538229600,74,10.47,-66.54,27.0,1.16
36,Jieshi,64,CN,1538233735,87,22.82,115.83,27.96,2.06
37,Berlevag,32,NO,1538233573,99,70.86,29.09,2.56,6.11
38,Tasiilaq,20,GL,1538232600,38,65.61,-37.64,4.0,3.6
39,Ushuaia,90,AR,1538229600,100,-54.81,-68.31,2.0,3.6
40,Hermanus,0,ZA,1538233735,28,-34.42,19.24,23.21,1.51
41,Puerto Ayora,75,EC,1538229600,69,-0.74,-90.35,25.0,5.7
42,Lompoc,1,US,1538231700,93,34.64,-120.46,17.2,1.81
43,Kaitangata,92,NZ,1538233736,96,-46.28,169.85,7.26,1.96
44,Kodiak,90,US,1538232300,89,39.95,-94.76,9.4,5.7
45,Lavrentiya,92,RU,1538233736,89,65.58,-170.99,8.16,10.11
46,Tuktoyaktuk,90,CA,1538229600,92,69.44,-133.03,-3.0,4.1
47,Carnarvon,0,ZA,1538233736,6,-30.97,22.13,23.56,3.81
48,Butaritari,68,KI,1538233736,100,3.07,172.79,29.36,1.61
49,Zhigansk,92,RU,1538233736,100,66.77,123.37,1.41,2.11
50,Bolshaya Glushitsa,32,RU,1538233796,60,50.24,43.59,15.66,3.41
51,La Paz,75,MX,1538228400,94,24.15,-110.32,25.0,1.46
52,Torbay,75,CA,1538229600,93,47.66,-52.73,20.0,6.2
53,Saint-Philippe,75,CA,1538232900,72,45.36,-73.48,13.6,1.5
54,Kalnciems,0,LV,1538232600,50,56.8,23.61,11.0,3.1
55,Narsaq,40,GL,1538232600,44,60.91,-46.05,4.0,1.5
56,Bethel,1,US,1538229180,86,60.79,-161.76,9.4,2.1
57,Yellowknife,75,CA,1538230860,86,62.45,-114.38,-1.0,6.2
58,Tierranueva,92,MX,1538233798,100,21.68,-100.57,14.81,1.76
59,Kavieng,0,PG,1538233798,100,-2.57,150.8,28.66,2.66
60,Geraldton,20,CA,1538229600,80,49.72,-86.95,-1.0,4.6
61,Kahului,90,US,1538231760,94,20.89,-156.47,26.1,4.6
62,Tiksi,88,RU,1538233799,100,71.64,128.87,-0.64,1.36
63,Kapaa,90,US,1538232060,100,22.08,-159.32,25.6,9.3
64,Arraial do Cabo,75,BR,1538229600,74,-22.97,-42.02,26.0,4.1
65,Barrow,92,AR,1538233799,99,-38.31,-60.23,16.11,6.11
66,Bandarbeyla,0,SO,1538233799,95,9.49,50.81,25.96,9.61
67,Saskylakh,68,RU,1538233800,99,71.97,114.09,1.06,3.66
68,Kamenka,92,RU,1538233800,72,53.19,44.05,8.81,2.71
69,Sitka,92,US,1538233800,100,37.17,-99.65,10.96,2.11
70,Upernavik,88,GL,1538233800,100,72.79,-56.15,1.16,10.66
71,Hithadhoo,92,MV,1538233800,100,-0.6,73.08,27.71,4.11
72,Chuy,36,UY,1538233800,82,-33.69,-53.46,25.36,10.46
73,Brigantine,20,US,1538232960,68,39.41,-74.36,23.3,3.1
74,Show Low,1,US,1538229240,49,34.25,-110.03,10.6,1.51
75,Ilulissat,75,GL,1538232600,74,69.22,-51.1,1.0,4.1
76,Chokurdakh,48,RU,1538233801,94,70.62,147.9,-2.54,4.01
77,Castro,92,CL,1538233802,100,-42.48,-73.76,7.36,4.96
78,Banda Aceh,80,ID,1538233803,100,5.56,95.32,24.76,0.66
79,Iqaluit,90,CA,1538230020,86,63.75,-68.52,1.0,6.2
80,Nikolskoye,20,RU,1538231400,52,59.7,30.79,8.0,3.0
81,Dingle,76,PH,1538233804,97,11.0,122.67,24.81,2.21
82,Clarence Town,90,AU,1538231400,58,-32.59,151.78,15.0,4.6
83,Klaksvik,80,FO,1538232600,76,62.23,-6.59,9.0,11.3
84,Vostok,68,RU,1538233804,86,46.45,135.83,4.16,0.86
85,Khasan,92,RU,1538233804,95,42.43,130.64,17.31,4.31
86,Zhuhai,20,CN,1538229600,45,40.71,112.04,9.0,4.0
87,Laredo,75,US,1538232960,93,27.51,-99.51,25.1,3.6
88,East London,20,ZA,1538229600,59,-33.02,27.91,19.0,5.1
89,Jamestown,0,AU,1538233805,81,-33.21,138.6,2.66,2.91
90,Ponta do Sol,68,BR,1538233805,62,-20.63,-46.0,27.46,3.11
91,Waitara,20,NZ,1538233805,94,-39.0,174.24,11.71,4.81
92,San Luis,32,AR,1538233641,92,-33.3,-66.34,15.06,8.86
93,Muros,20,ES,1538233200,40,42.77,-9.06,30.0,3.6
94,Hambantota,92,LK,1538233807,100,6.12,81.12,24.61,2.81
95,Hilo,40,US,1538230500,90,19.71,-155.08,25.0,2.6
96,Myrtle Beach,90,US,1538232960,87,33.7,-78.89,26.7,1.5
97,Vao,0,EE,1538233807,86,59.1,26.19,7.11,3.91
98,Sisimiut,80,GL,1538233807,76,66.94,-53.67,1.71,2.21
99,Baringo,76,KE,1538233807,85,0.47,35.97,21.21,1.51
100,Sokoni,64,CD,1538233828,22,-12.89,28.78,31.16,2.96
101,Sampit,0,ID,1538233828,76,-2.54,112.95,25.91,4.21
102,Victoria,75,BN,1538233200,88,5.28,115.24,28.0,2.11
103,Porto Belo,75,BR,1538229600,83,-27.15,-48.54,25.0,5.1
104,Saint-Francois,0,FR,1538233200,43,46.42,3.91,21.0,3.1
105,Mount Gambier,56,AU,1538233829,81,-37.83,140.78,8.56,1.31
106,Shakawe,92,BW,1538233829,15,-18.36,21.84,34.36,5.26
107,Albany,75,US,1538232840,62,42.65,-73.75,16.7,6.7
108,Tateyama,92,JP,1538233829,100,36.66,137.31,12.81,0.91
109,Santona,20,ES,1538233200,57,43.44,-3.46,24.0,3.1
110,Pajapan,75,MX,1538229120,57,18.26,-94.69,27.0,3.31
111,Souillac,0,FR,1538233200,35,45.6,-0.6,23.0,6.2
112,Sola,0,FI,1538232600,60,62.78,29.36,6.0,2.6
113,Saint George,75,GR,1538232600,87,39.45,22.34,15.0,6.7
114,Berestechko,48,UA,1538233830,58,50.36,25.12,11.26,4.46
115,Tabou,64,CI,1538233830,100,4.42,-7.36,25.21,6.11
116,Dikson,88,RU,1538233831,76,73.51,80.55,7.16,10.66
117,Esperance,40,TT,1538229600,79,10.24,-61.45,30.0,6.7
118,Cherskiy,76,RU,1538233831,93,68.75,161.3,1.06,3.06
119,Verkhnyaya Toyma,80,RU,1538233831,85,62.24,45.0,4.86,3.91
120,Batemans Bay,0,AU,1538233831,96,-35.71,150.18,7.91,2.61
121,Narni,0,IT,1538232600,28,42.52,12.52,28.0,4.6
122,Cairns,40,AU,1538233200,68,-16.92,145.77,22.0,4.1
123,Bulgan,8,MN,1538233832,76,48.81,103.53,-1.59,0.81
124,Batsfjord,0,NO,1538229000,51,70.63,29.72,4.0,5.1
125,Sorong,20,ID,1538233832,100,-0.86,131.25,27.66,4.66
126,Doboz,20,HU,1538232300,44,46.73,21.24,16.0,7.2
127,Margate,40,AU,1538231400,70,-43.03,147.26,9.0,4.1
128,Bethanien,0,NA,1538233832,10,-26.5,17.16,31.21,4.81
129,Bahadurganj,76,IN,1538233832,64,26.26,87.82,30.46,1.66
130,Meadow Lake,90,CA,1538229600,82,54.13,-108.44,0.0,3.6
131,Srednekolymsk,92,RU,1538233833,94,67.46,153.71,1.66,2.86
132,Koratagere,40,IN,1538233200,88,13.52,77.24,25.0,1.5
133,Bredasdorp,0,ZA,1538229600,48,-34.53,20.04,19.0,7.7
134,Biak,36,ID,1538233833,90,-0.91,122.88,25.46,2.41
135,Lamu,8,ID,1538233833,95,0.57,122.3,24.36,1.51
136,Lhokseumawe,56,ID,1538233833,100,5.18,97.15,26.81,1.61
137,Nanortalik,56,GL,1538233833,94,60.14,-45.24,3.41,5.01
138,Svetlogorsk,75,RU,1538231400,50,53.14,59.15,14.0,6.0
139,Quatre Cocos,75,MU,1538229600,78,-20.21,57.76,23.0,6.7
140,Avarua,75,CK,1538229600,77,-21.21,-159.78,20.0,1.0
141,Mahajanga,20,MG,1538229600,58,-15.72,46.32,28.0,5.1
142,Pacific Grove,40,US,1538231880,93,36.62,-121.92,16.1,1.06
143,Nhulunbuy,0,AU,1538233200,73,-12.18,136.78,22.0,1.5
144,Bintulu,75,MY,1538233200,94,3.17,113.03,25.0,2.6
145,Langsa,88,ID,1538233835,98,4.47,97.97,21.86,1.01
146,Deputatskiy,48,RU,1538233835,93,69.3,139.9,-4.14,1.31
147,Hokitika,92,NZ,1538233835,97,-42.72,170.96,11.66,5.91
148,Evensk,92,RU,1538233835,100,61.92,159.24,4.86,5.91
149,Airai,0,TL,1538233835,83,-8.93,125.41,18.16,0.81
150,Nichinan,90,JP,1538230320,88,31.65,131.31,26.0,7.2
151,Richards Bay,44,ZA,1538233855,71,-28.77,32.06,20.11,5.66
152,Severo-Kurilsk,44,RU,1538233856,100,50.68,156.12,7.56,3.86
153,Mayor Pablo Lagerenza,88,PY,1538233856,64,-19.93,-60.77,31.86,8.56
154,Razole,0,IN,1538233856,97,16.48,81.84,29.51,2.91
155,Padang,64,ID,1538233729,100,-0.92,100.36,26.36,2.86
156,Taoudenni,0,ML,1538233856,18,22.68,-3.98,37.86,2.41
157,Milkovo,88,BG,1538233200,48,41.53,24.68,21.0,1.5
158,Lebu,20,ET,1538229600,33,8.96,38.73,22.0,5.7
159,Petropavlovsk-Kamchatskiy,0,RU,1538229600,75,53.05,158.65,6.0,2.0
160,Launceston,0,AU,1538231400,80,-41.43,147.14,4.0,4.1
161,Anyama,75,CI,1538231400,78,5.5,-4.06,28.0,5.1
162,Lima,0,PE,1538233746,83,-12.06,-77.04,18.71,1.26
163,Norman Wells,40,CA,1538229600,100,65.28,-126.83,-6.0,1.5
164,Katsuura,90,JP,1538231820,94,33.93,134.5,20.0,1.5
165,Palmer,0,AU,1538231400,70,-34.85,139.16,9.0,1.5
166,Mende,0,FR,1538233858,39,44.52,3.5,20.36,1.76
167,Knyaze-Volkonskoye,0,RU,1538231400,66,48.46,135.46,12.0,2.0
168,Faanui,0,PF,1538233859,100,-16.48,-151.75,24.66,2.91
169,Porbandar,0,IN,1538233859,62,21.64,69.61,28.11,4.91
170,Longyearbyen,40,NO,1538232600,68,78.22,15.63,-3.0,1.5
171,Poya,0,NC,1538233859,100,-21.35,165.16,21.16,7.51
172,Tocopilla,20,CL,1538233859,96,-22.09,-70.2,17.46,1.36
173,Cimislia,75,MD,1538231400,81,46.52,28.78,11.0,9.3
174,Los Llanos de Aridane,40,ES,1538233200,65,28.66,-17.92,26.0,4.6
175,Saint-Pierre,0,FR,1538233200,33,48.95,4.24,19.0,7.2
176,Inhambane,75,MZ,1538229600,69,-23.87,35.38,25.0,10.3
177,Dwarka,20,IN,1538231400,70,28.58,77.04,30.0,2.1
178,High Prairie,0,CA,1538233861,73,55.43,-116.48,-3.29,3.01
179,Batken,0,KG,1538233861,69,40.06,70.82,13.16,1.16
180,Kutum,44,SD,1538233861,14,14.2,24.66,34.66,4.66
181,Christchurch,8,NZ,1538231400,47,-43.53,172.64,14.0,7.7
182,Beian,75,NO,1538232600,71,63.66,9.57,11.0,13.4
183,Pochutla,75,MX,1538228700,78,15.74,-96.47,25.0,1.76
184,Grindavik,75,IS,1538231400,87,63.84,-22.43,6.0,7.7
185,Ternate,40,PH,1538229600,94,14.29,120.72,28.0,1.5
186,Saint Anthony,1,US,1538229360,13,43.97,-111.68,9.4,2.1
187,Barranca,64,PE,1538233863,97,-10.75,-77.76,16.61,3.31
188,Umea,40,SE,1538232600,81,63.83,20.26,7.0,4.6
189,Namibe,0,AO,1538233863,96,-15.19,12.15,21.21,3.91
190,Chipinge,12,ZW,1538233864,35,-20.19,32.62,29.16,6.61
191,Sao Jose da Coroa Grande,76,BR,1538233864,91,-8.9,-35.15,25.91,3.91
192,Praia da Vitoria,20,PT,1538229600,73,38.73,-27.07,24.0,7.16
193,Matara,20,PE,1538229600,50,-13.74,-72.9,12.0,2.6
194,Pevek,92,RU,1538233864,100,69.7,170.27,3.91,2.31
195,Marawi,32,PH,1538233864,97,8.0,124.29,19.06,0.81
196,Presidencia Roque Saenz Pena,0,AR,1538233865,60,-26.79,-60.44,33.21,9.96
197,Sahagun,40,CO,1538229600,83,8.95,-75.44,29.0,2.56
198,Grand Gaube,75,MU,1538229600,78,-20.01,57.66,23.0,6.7
199,Dvinskoy,80,RU,1538233867,85,62.16,45.12,4.86,3.91
200,Coahuayana,0,MX,1538233887,82,18.62,-100.35,21.21,1.31
201,Ancud,92,CL,1538233887,86,-41.87,-73.83,8.86,5.66
202,Mason City,90,US,1538232900,86,43.15,-93.2,6.0,2.1
203,Luderitz,0,NA,1538233887,62,-26.65,15.16,22.56,5.71
204,Galesong,0,ID,1538233200,83,-5.32,119.37,24.0,0.5
205,Rakai,76,UG,1538233888,83,-0.71,31.4,22.36,1.66
206,Shaoguan,0,CN,1538233888,67,24.81,113.59,19.21,1.76
207,Bambous Virieux,75,MU,1538229600,78,-20.34,57.76,23.0,6.7
208,Sabalgarh,0,IN,1538233888,45,26.25,77.41,25.56,2.61
209,Winnemucca,1,US,1538232960,13,40.97,-117.74,6.7,2.1
210,Te Anau,92,NZ,1538233888,100,-45.41,167.72,4.81,1.31
211,Coquimbo,0,CL,1538229600,77,-29.95,-71.34,16.0,3.6
212,Paamiut,76,GL,1538233888,99,61.99,-49.67,4.06,8.91
213,Tuatapere,92,NZ,1538233889,100,-46.13,167.69,7.76,3.31
214,Vardo,1,US,1538232900,64,39.62,-77.74,21.0,4.6
215,Phangnga,20,TH,1538231400,74,8.45,98.53,29.0,0.5
216,Veraval,0,FR,1538233200,44,49.65,0.71,16.0,4.1
217,Shanghai,0,CN,1538231400,77,31.23,121.49,21.0,4.0
218,Morehead,20,US,1538229180,86,38.18,-83.43,16.7,1.71
219,Nantucket,1,US,1538231700,82,41.28,-70.1,18.9,3.1
220,San Cristobal,75,EC,1538229600,71,-0.39,-78.55,13.0,1.5
221,Angoche,0,MZ,1538233890,100,-16.23,39.91,26.46,5.66
222,Zhezkazgan,0,KZ,1538229600,33,47.8,67.71,15.0,2.0
223,Arman,40,RU,1538229600,75,59.7,150.17,5.0,3.0
224,Ayan,0,TR,1538233890,36,40.67,33.6,20.66,1.86
225,Kloulklubed,75,PW,1538229180,88,7.04,134.26,26.0,3.1
226,Hami,80,CN,1538233890,55,42.84,93.51,12.56,2.11
227,Shetpe,64,KZ,1538233890,29,44.14,52.16,20.41,2.86
228,Talnakh,0,RU,1538233891,82,69.49,88.39,6.51,10.16
229,Husavik,0,CA,1538233891,96,50.56,-96.99,1.96,4.01
230,Urucara,0,BR,1538233891,48,-2.54,-57.76,34.91,2.26
231,Puerto Penasco,0,MX,1538233707,93,31.32,-113.53,29.56,7.66
232,Port-Cartier,75,CA,1538229600,93,50.03,-66.88,8.0,4.6
233,Karasjok,0,NO,1538232600,60,69.47,25.52,4.0,14.9
234,Skibbereen,75,IE,1538233200,66,51.55,-9.27,13.0,3.6
235,Kiomboi,0,TZ,1538233892,40,-4.28,34.41,28.36,3.91
236,Port-Gentil,40,GA,1538229600,83,-0.72,8.78,28.0,5.1
237,Ewa Beach,1,US,1538229420,96,21.32,-158.01,25.0,2.66
238,Beloha,0,MG,1538233892,41,-25.17,45.06,28.71,4.46
239,Eyemouth,0,GB,1538232600,50,55.87,-2.09,14.0,5.7
240,Necochea,80,AR,1538233714,96,-38.55,-58.74,16.91,4.81
241,Abha,40,SA,1538229600,17,18.22,42.5,26.0,7.7
242,Jati,0,PK,1538233893,47,24.35,68.27,31.16,4.91
243,Leningradskiy,64,RU,1538233893,91,69.38,178.42,5.41,7.81
244,Ulaangom,36,MN,1538233893,81,49.98,92.07,0.96,0.51
245,Wittmund,40,DE,1538230800,47,53.58,7.78,15.0,3.6
246,Chicama,90,PE,1538229600,88,-7.84,-79.15,17.0,4.1
247,Guisguis,12,PH,1538233894,100,13.86,121.5,27.41,4.16
248,Kozhevnikovo,12,RU,1538233894,51,56.26,83.98,11.21,4.81
249,Bonavista,100,CA,1538233894,85,48.65,-53.11,15.16,7.76
250,Carauari,0,BR,1538233914,68,-4.88,-66.9,32.36,1.71
251,Dingli,20,MT,1538230500,50,35.86,14.38,25.0,5.7
252,Palora,48,EC,1538233914,85,-1.7,-77.97,20.81,0.96
253,Wageningen,75,NL,1538232900,51,51.98,5.66,16.0,1.5
254,Tomatlan,20,MX,1538233915,89,19.93,-105.25,24.76,1.46
255,Sao Filipe,0,CV,1538233915,90,14.9,-24.5,27.01,5.21
256,Kokrek,12,RU,1538233915,81,43.24,46.72,15.06,1.06
257,Mocuba,0,MZ,1538233915,30,-16.84,36.99,32.61,4.41
258,Port Hedland,40,AU,1538233200,78,-20.31,118.58,23.0,6.2
259,Tallahassee,1,US,1538231700,83,30.44,-84.28,30.0,2.1
260,Lazaro Cardenas,20,MX,1538228400,93,28.39,-105.62,13.0,2.1
261,Bud,75,NO,1538232600,87,62.91,6.91,11.0,5.1
262,Lasa,20,CY,1538233200,55,34.92,32.53,30.0,4.1
263,Constitucion,90,MX,1538228820,100,23.99,-104.67,14.0,1.86
264,Toora-Khem,0,RU,1538233809,89,52.47,96.11,1.81,0.96
265,Kavaratti,92,IN,1538233916,100,10.57,72.64,28.21,4.81
266,Vasai,0,IN,1538233916,47,22.43,69.93,28.46,3.96
267,Ocampo,12,PH,1538233916,99,13.56,123.37,25.86,1.86
268,Port Hardy,90,CA,1538229600,100,50.7,-127.42,9.0,1.0
269,Portland,90,US,1538232960,80,45.52,-122.67,13.9,2.6
270,Vestmannaeyjar,75,IS,1538229600,81,63.44,-20.27,7.0,6.7
271,Havoysund,20,NO,1538232600,64,71.0,24.66,3.0,11.8
272,Bure,0,NG,1538233917,49,10.52,10.33,34.26,2.51
273,Tres Arroyos,92,AR,1538233918,99,-38.38,-60.28,16.11,6.11
274,Kampot,64,KH,1538233918,96,10.62,104.18,25.71,0.86
275,Karratha,0,AU,1538233638,59,-20.74,116.85,19.41,4.36
276,Guerrero Negro,0,MX,1538233918,89,27.97,-114.04,20.76,2.31
277,Mitsamiouli,75,KM,1538229600,61,-11.38,43.28,28.0,4.1
278,Yulara,8,AU,1538233200,23,-25.24,130.99,24.0,7.7
279,Toccoa,40,US,1538232960,73,34.58,-83.33,25.0,2.1
280,Pisco,90,PE,1538229600,30,-13.71,-76.2,22.0,1.5
281,Gat,48,SN,1538233918,72,14.69,-16.54,30.81,4.11
282,Karla,40,EE,1538232600,57,59.37,24.93,9.0,6.2
283,Kanniyakumari,36,IN,1538233620,97,8.08,77.57,27.61,7.76
284,Atasu,0,KZ,1538233919,74,48.68,71.64,7.16,1.41
285,Port Lincoln,0,AU,1538233919,100,-34.72,135.86,9.91,4.51
286,Willowmore,0,ZA,1538233919,24,-33.3,23.49,20.01,1.56
287,Cockburn Town,56,TC,1538233690,93,21.46,-71.14,29.31,6.16
288,Sobolevo,56,RU,1538233919,82,54.43,31.9,7.56,3.66
289,Komsomolskiy,76,RU,1538233919,91,67.55,63.78,3.36,6.46
290,Spearfish,90,US,1538232900,87,44.49,-103.86,6.0,2.6
291,Axim,32,GH,1538233920,97,4.87,-2.24,26.01,5.66
292,Taldan,32,RU,1538233920,59,53.69,124.82,7.21,2.56
293,Georgetown,40,GY,1538229600,66,6.8,-58.16,31.0,5.1
294,Bodden Town,40,KY,1538229600,83,19.28,-81.25,29.0,4.1
295,Pecos,90,US,1538232900,82,31.42,-103.49,20.0,3.6
296,Clyde River,90,CA,1538229600,73,70.47,-68.59,-3.0,2.6
297,Turukhansk,92,RU,1538233921,71,65.8,87.96,9.61,10.31
298,Khuzhir,0,RU,1538233921,100,53.19,107.35,4.06,2.01
299,Dabrowa Tarnowska,0,PL,1538233921,51,50.17,20.99,12.36,3.61
300,Galveston,1,US,1538231700,66,40.58,-86.19,14.0,2.6
301,Champerico,75,MX,1538228880,88,16.38,-93.6,23.0,1.31
302,Staritsa,0,RU,1538233942,65,56.51,34.93,6.16,4.31
303,Edgewater,40,US,1538229360,74,28.99,-80.9,31.0,3.01
304,Awjilah,44,LY,1538233942,18,29.14,21.3,30.96,5.11
305,Pinega,64,RU,1538233942,94,64.7,43.39,3.56,3.51
306,Berja,20,ES,1538233200,65,36.85,-2.95,25.0,3.6
307,Cabo San Lucas,40,MX,1538228760,78,22.89,-109.91,25.0,2.66
308,Nago,0,IT,1538232600,38,45.88,10.89,25.0,3.6
309,Skarnes,80,NO,1538233943,88,60.25,11.68,8.11,4.91
310,Pangai,32,TO,1538233943,100,-19.8,-174.35,23.96,8.81
311,Wukari,12,NG,1538233943,80,7.87,9.78,30.56,3.46
312,Juneau,1,US,1538232780,100,58.3,-134.42,2.2,1.26
313,Sendafa,20,ET,1538229600,33,9.16,39.02,22.0,5.7
314,Aden,0,YE,1538233943,99,12.79,45.03,28.86,4.36
315,High Level,40,CA,1538233200,68,58.52,-117.13,-1.0,5.7
316,Dharchula,0,IN,1538233943,86,29.85,80.53,10.86,0.26
317,Chik,0,RU,1538231400,57,54.99,82.44,9.0,3.0
318,Kalabo,80,ZM,1538233944,15,-15.0,22.67,35.16,4.56
319,Aklavik,40,CA,1538229600,100,68.22,-135.01,-4.0,1.5
320,Herat,0,AF,1538229300,13,34.35,62.22,25.0,4.6
321,Zemio,32,CF,1538233945,94,5.02,25.13,27.56,1.36
322,Port Macquarie,75,AU,1538233200,58,-31.43,152.91,15.0,2.1
323,Liling,0,CN,1538229600,64,27.65,113.49,21.0,2.0
324,Tra Vinh,68,VN,1538233945,100,9.93,106.35,23.71,1.76
325,Goderich,64,CA,1538233945,82,43.74,-81.71,11.96,6.11
326,Belaya Gora,92,RU,1538233945,93,68.54,146.19,-0.34,5.06
327,Lagoa,20,PT,1538231400,65,37.14,-8.45,25.0,4.1
328,Xichang,92,CN,1538233946,99,27.88,102.25,12.26,0.76
329,Kiunga,56,PG,1538233946,90,-6.12,141.3,22.66,1.46
330,Codrington,56,AU,1538233946,97,-28.95,153.24,14.36,0.91
331,Roald,75,NO,1538232600,81,62.58,6.12,11.0,15.9
332,Nome,90,US,1538232900,90,30.04,-94.42,23.9,4.36
333,Isangel,100,VU,1538233947,100,-19.55,169.27,21.81,7.46
334,Huntsville,40,US,1538232900,76,34.73,-86.59,24.4,1.66
335,Nara,75,JP,1538231400,83,34.68,135.8,21.0,5.7
336,Pandharpur,36,IN,1538233947,89,17.68,75.33,24.71,1.91
337,Luba,0,PH,1538233947,95,17.32,120.7,21.21,1.21
338,Lardos,40,GR,1538232600,69,36.09,28.02,26.0,4.6
339,Srandakan,0,ID,1538233948,99,-7.94,110.25,20.86,1.16
340,Polson,88,US,1538233948,78,47.69,-114.16,4.16,1.11
341,Loikaw,88,MM,1538233948,96,19.67,97.21,22.41,0.86
342,Severomuysk,8,RU,1538233948,74,56.17,113.57,-5.19,0.71
343,Itaueira,0,BR,1538233755,24,-7.6,-43.03,37.91,3.91
344,Baykit,0,RU,1538233948,74,61.68,96.39,5.01,4.31
345,Banska Stiavnica,20,SK,1538233200,30,48.45,18.91,15.0,7.2
346,Kamaishi,100,JP,1538233949,98,39.28,141.86,17.01,3.66
347,Batyrevo,92,RU,1538233949,76,55.07,47.6,7.21,2.41
348,Aswan,20,EG,1538233949,15,24.09,32.9,40.36,4.11
349,Ust-Nera,88,RU,1538233949,89,64.57,143.24,-6.59,2.16
350,Fairbanks,1,US,1538232780,17,64.84,-147.72,0.6,2.1
351,Port Elizabeth,20,US,1538232900,71,39.31,-74.98,23.3,3.6
352,Tuy Hoa,88,VN,1538233969,97,13.08,109.3,26.81,2.41
353,Half Moon Bay,1,US,1538231700,87,37.46,-122.43,17.2,2.1
354,Alexandria,90,US,1538231700,83,31.31,-92.44,23.3,2.6
355,Sarata,88,UA,1538233970,60,46.02,29.66,18.21,2.71
356,Awbari,24,LY,1538233970,32,26.59,12.77,30.41,1.41
357,Caravelas,64,BR,1538233970,100,-17.73,-39.27,24.76,2.61
358,Mehendiganj,12,BD,1538233970,89,22.82,90.53,28.56,1.26
359,Novopokrovka,76,RU,1538233970,93,45.85,134.51,10.01,1.51
360,Camocim,0,BR,1538233970,69,-2.9,-40.84,31.46,6.36
361,Carutapera,0,BR,1538233971,64,-1.2,-46.02,31.21,6.01
362,Auki,0,NG,1538233971,73,12.18,6.51,31.31,2.66
363,Acapulco,75,MX,1538228700,78,16.86,-99.88,27.0,2.6
364,Valparaiso,20,US,1538232300,62,41.47,-87.06,13.3,1.5
365,Baghdad,0,IQ,1538233200,20,33.3,44.38,36.0,4.6
366,Dixon,90,US,1538231760,71,41.84,-89.48,10.6,2.1
367,Nkowakowa,48,ZA,1538233971,55,-23.89,30.29,19.66,4.91
368,Pedro II,0,BR,1538233972,37,-4.43,-41.45,35.46,4.46
369,Kui Buri,20,TH,1538233972,91,12.07,99.86,25.21,0.86
370,San Patricio,0,PY,1538233972,61,-26.98,-56.83,31.46,4.16
371,Tadine,92,NC,1538233972,97,-21.55,167.88,22.06,9.26
372,Kargasok,76,RU,1538233972,54,59.06,80.87,10.36,4.41
373,Merauke,0,ID,1538233972,82,-8.49,140.4,24.96,9.01
374,Inirida,20,CO,1538233972,79,3.87,-67.92,29.71,1.21
375,Asosa,12,ET,1538233973,98,10.07,34.53,20.06,1.21
376,Prince Rupert,1,CA,1538233200,87,54.32,-130.32,6.0,2.6
377,Kuliyapitiya,76,LK,1538233973,100,7.47,80.04,25.71,1.91
378,Yumen,8,CN,1538233973,24,40.29,97.04,10.81,4.76
379,Mahebourg,75,MU,1538229600,78,-20.41,57.7,23.0,6.7
380,Cidreira,0,BR,1538233973,75,-30.17,-50.22,26.11,7.51
381,Palencia,0,ES,1538233200,31,42.01,-4.53,26.0,1.0
382,Bilibino,92,RU,1538233974,99,68.06,166.44,1.31,1.86
383,Ballina,75,IE,1538233200,71,54.11,-9.15,11.0,6.7
384,Buala,12,SB,1538233975,100,-8.15,159.59,25.51,1.21
385,Salalah,20,OM,1538229000,69,17.01,54.1,27.0,3.1
386,Yatou,40,CM,1538229600,70,3.63,9.81,31.0,2.6
387,Irricana,75,CA,1538233440,92,51.32,-113.6,0.0,6.2
388,Puro,36,PH,1538233975,97,13.13,123.76,25.21,1.16
389,Bosaso,0,SO,1538233975,100,11.28,49.18,28.16,2.21
390,Olavarria,80,AR,1538233976,96,-36.89,-60.32,16.26,6.71
391,Moba,8,CD,1538233976,49,-7.04,29.77,27.96,1.41
392,Kuntaur,8,GM,1538233976,89,13.67,-14.89,30.61,2.56
393,Flinders,0,AU,1538229600,75,-34.58,150.85,7.0,2.6
394,Shibetsu,48,JP,1538233976,86,44.15,142.46,4.36,0.96
395,Balkanabat,0,TM,1538233976,30,39.51,54.36,25.91,2.61
396,Touros,68,BR,1538233976,74,-5.2,-35.46,28.46,6.31
397,Ovalle,88,CL,1538233976,91,-30.6,-71.2,17.16,1.66
398,Luganville,92,VU,1538233977,100,-15.51,167.18,25.11,10.51
399,Murray Bridge,0,AU,1538233977,100,-35.12,139.28,8.71,2.86
400,Sarankhola,0,BD,1538233997,84,22.31,89.79,28.66,2.06
401,Simao,68,CN,1538233997,97,22.76,100.79,18.71,0.81
402,Fukue,75,JP,1538231400,93,35.03,136.69,19.0,4.6
403,Viedma,32,AR,1538233997,95,-40.81,-62.99,14.76,6.91
404,Tautira,20,PF,1538233200,78,-17.73,-149.15,22.0,1.0
405,Pemba,20,MZ,1538229600,78,-12.97,40.52,26.0,5.7
406,Zyryanka,92,RU,1538233998,87,65.73,150.89,0.56,4.76
407,Brandfort,0,ZA,1538229600,6,-28.7,26.46,26.0,2.1
408,Guiratinga,32,BR,1538233761,55,-16.35,-53.76,32.71,2.41
409,Ngunguru,8,NZ,1538233998,100,-35.62,174.5,12.41,1.71
410,Bubaque,75,GW,1538229600,88,11.28,-15.83,25.0,1.5
411,Comodoro Rivadavia,0,AR,1538229600,33,-45.87,-67.48,14.0,10.3
412,Medicina,0,IT,1538232900,41,44.48,11.64,25.0,6.2
413,Tarko-Sale,92,RU,1538233999,83,64.92,77.78,6.76,6.01
414,Mongu,32,ZM,1538233999,15,-15.27,23.14,35.46,6.26
415,Bontang,0,ID,1538233999,93,0.12,117.47,28.46,3.71
416,Sao Joao da Barra,90,BR,1538229600,78,-21.64,-41.05,25.0,3.56
417,Avera,1,US,1538231700,69,33.19,-82.53,28.3,2.1
418,Yaan,0,NG,1538234000,76,7.38,8.57,31.61,2.16
419,Teguise,40,ES,1538233200,83,29.06,-13.56,25.0,3.1
420,Lockhart,0,AU,1538233200,60,-35.22,146.72,5.0,2.1
421,Matina,36,CR,1538234000,92,10.08,-83.29,26.61,0.91
422,Nuuk,90,GL,1538232600,100,64.17,-51.74,3.0,3.6
423,Olean,75,US,1538232960,71,42.08,-78.43,13.9,2.6
424,Amapa,40,HN,1538233200,83,15.09,-87.97,27.0,2.1
425,Myanaung,64,MM,1538234001,99,18.28,95.32,25.36,1.31
426,Sorland,92,NO,1538234001,100,67.67,12.69,9.96,11.76
427,Derzhavinsk,0,KZ,1538234001,44,51.1,66.31,12.06,4.96
428,Praya,20,ID,1538233200,83,-8.71,116.27,25.0,2.81
429,Redlands,75,US,1538231700,100,34.06,-117.19,18.9,0.91
430,Senno,56,RU,1538229600,66,57.76,27.95,10.0,2.0
431,Hamilton,40,CA,1538229600,81,43.26,-79.87,14.0,4.1
432,Vallenar,24,CL,1538234002,65,-28.58,-70.76,18.96,1.06
433,Lokhvytsya,92,UA,1538234003,98,50.37,33.26,10.66,1.66
434,Kandi,44,BJ,1538234003,68,11.13,2.93,32.71,2.16
435,Alice Springs,0,AU,1538233200,27,-23.7,133.88,18.0,4.1
436,Oranjemund,0,ZA,1538234003,80,-28.55,16.43,16.71,9.86
437,Griffith,0,AU,1538234003,68,-34.29,146.06,6.46,2.31
438,Bassar,75,TG,1538229600,66,9.26,0.78,29.0,2.6
439,Mallaig,90,GB,1538232600,87,57.01,-5.83,11.0,9.3
440,Moquegua,0,PE,1538234004,61,-17.19,-70.93,20.46,1.61
441,Sibu,75,MY,1538229600,100,2.29,111.83,24.0,1.0
442,Pakaur,24,IN,1538234004,89,24.64,87.92,27.71,1.11
443,Puerto del Rosario,75,ES,1538233200,78,28.5,-13.86,26.0,6.2
444,Peleduy,8,RU,1538234004,86,59.63,112.75,0.31,0.91
445,Sirsa,0,IN,1538234005,54,29.54,75.04,26.86,2.06
446,Cabedelo,75,BR,1538229600,70,-6.97,-34.84,29.0,6.2
447,Vadso,24,NO,1538232600,59,70.07,29.75,4.0,7.2
448,Shingu,92,JP,1538234005,100,33.72,135.99,23.71,6.36
449,Sao Gabriel da Cachoeira,36,BR,1538234005,80,-0.13,-67.09,29.01,1.16
450,Mount Isa,0,AU,1538233200,35,-20.73,139.49,21.0,1.5
451,Placido de Castro,24,BR,1538234025,69,-10.34,-67.19,31.66,1.31
452,Conakry,48,GN,1538234026,100,9.52,-13.7,27.06,3.96
453,Muzhi,76,RU,1538234026,89,65.4,64.7,5.36,5.56
454,Noumea,75,NC,1538233200,77,-22.28,166.46,19.0,1.0
455,Taonan,100,CN,1538234026,93,45.34,122.78,8.71,2.11
456,Tlapacoyan,90,MX,1538228760,94,19.96,-97.21,24.0,2.6
457,Tazovskiy,92,RU,1538234026,96,67.47,78.7,6.71,5.41
458,Cartagena,20,ES,1538233200,61,37.63,-1.0,29.0,4.1
459,Santa Cruz,40,US,1538231880,93,36.97,-122.03,16.1,0.86
460,Sugod,44,PH,1538234028,98,12.99,124.08,28.66,4.81
461,Kasrawad,0,IN,1538229600,61,22.12,75.61,27.0,1.0
462,Araria,76,IN,1538234028,64,26.13,87.47,30.46,1.66
463,Golyshmanovo,88,RU,1538234029,67,56.4,68.37,13.91,9.41
464,Ondjiva,56,AO,1538234029,15,-17.07,15.73,36.96,5.21
465,Kannad,0,IN,1538234029,56,20.26,75.13,25.36,2.56
466,Chapais,90,CA,1538229600,83,49.78,-74.86,2.0,3.1
467,Limenaria,40,GR,1538232600,68,40.63,24.58,21.0,3.6
468,Gariadhar,56,IN,1538231400,46,21.54,71.58,32.0,1.5
469,Verkhnyaya Inta,92,RU,1538234029,98,65.99,60.32,2.61,2.11
470,Nortelandia,68,BR,1538234029,88,-14.45,-56.8,28.76,1.86
471,Bishopbriggs,90,GB,1538232600,87,55.9,-4.23,11.0,8.2
472,Taraz,0,KZ,1538231400,33,42.89,71.39,17.0,2.0
473,Dubovka,0,RU,1538231400,48,49.06,44.83,18.0,3.0
474,Solnechnyy,8,RU,1538234030,52,50.72,136.64,11.86,3.46
475,Panjab,36,AF,1538234030,72,34.38,67.02,4.56,0.26
476,Broken Hill,0,AU,1538234030,62,-31.97,141.45,5.66,2.76
477,Mehamn,32,NO,1538234030,84,71.03,27.85,2.66,6.61
478,Taywarah,80,AF,1538234030,38,33.35,64.42,12.71,1.36
479,San Carlos de Bariloche,40,AR,1538229600,70,-41.13,-71.31,7.0,10.8
480,Iracoubo,48,GF,1538234031,66,5.48,-53.21,30.61,2.51
481,Kalga,20,RU,1538234031,78,50.92,118.9,6.06,1.96
482,Hofn,0,IS,1538234031,89,64.25,-15.21,8.41,5.41
483,Egvekinot,92,RU,1538234031,97,66.32,-179.17,8.46,3.76
484,Sihora,0,IN,1538234031,65,23.49,80.11,24.21,1.86
485,Umm Lajj,92,SA,1538234031,64,25.02,37.27,31.96,3.41
486,Pulandian,0,CN,1538231400,55,39.4,121.96,16.0,4.0
487,Nelson Bay,75,AU,1538233200,54,-32.72,152.14,15.0,4.6
488,Pringsewu,0,ID,1538234032,77,-5.36,104.98,23.66,1.41
489,Hobyo,76,SO,1538234032,88,5.35,48.53,25.96,5.91
490,Harlingen,1,US,1538233380,82,26.19,-97.7,28.3,1.76
491,Springbok,0,ZA,1538234032,6,-29.67,17.88,27.96,4.21
492,Hakkari,0,FI,1538232600,52,61.34,23.75,8.0,4.1
493,Lamar,90,US,1538229180,85,38.09,-102.62,7.8,3.1
494,Moose Factory,40,CA,1538231100,100,51.26,-80.61,3.0,1.5
495,Walvis Bay,0,NA,1538229600,56,-22.95,14.51,20.0,5.1
496,Beloyarskiy,64,RU,1538234033,87,63.71,66.67,5.46,2.66
497,Gimli,0,CA,1538234034,96,50.63,-96.99,1.96,4.01
498,Peniche,0,PT,1538233200,73,39.36,-9.38,27.0,4.1
499,Atar,0,MR,1538234034,24,20.52,-13.05,37.96,3.31
500,Samarai,92,PG,1538234054,100,-10.62,150.67,23.66,7.06
501,Kieta,12,PG,1538234054,100,-6.22,155.63,24.26,1.76
502,Pierre,90,US,1538232780,82,44.37,-100.35,7.8,5.7
503,Arona,0,IT,1538232900,26,45.76,8.56,26.0,2.1
504,Ambon,0,FR,1538233200,37,47.55,-2.56,20.0,5.1
505,Mongoumba,20,CD,1538234055,65,3.64,18.59,30.46,1.21
506,Karera,0,IN,1538234055,46,25.46,78.13,25.21,2.76
507,Ryotsu,100,JP,1538234055,100,38.08,138.43,18.81,4.21
508,Victoria,75,BN,1538233200,88,5.28,115.24,28.0,2.11
509,Kruisfontein,0,ZA,1538234055,68,-34.0,24.73,19.06,6.26
510,Saint-Georges,80,CA,1538234056,80,46.12,-70.67,10.86,3.01
511,Kainantu,56,PG,1538234056,94,-6.29,145.87,15.31,0.81
512,Buraydah,0,SA,1538229600,16,26.33,43.97,37.0,4.1
513,Nemuro,32,JP,1538234056,98,43.32,145.57,16.21,4.76
514,Hasaki,75,JP,1538231400,100,35.73,140.83,18.0,4.1
515,Sfantu Gheorghe,0,RO,1538233200,59,44.65,26.83,16.0,10.3
516,Jeremie,0,HT,1538234056,89,18.65,-74.12,29.46,3.41
517,Caceres,32,CO,1538234057,86,5.53,-74.53,23.56,1.06
518,Rameshki,32,RU,1538234057,71,57.35,36.05,5.56,4.76
519,Bereznik,44,RU,1538234057,75,62.86,42.71,4.46,4.81
520,Jiancheng,75,CN,1538229600,88,30.39,104.55,21.0,1.06
521,Menongue,80,AO,1538234057,19,-14.66,17.68,32.21,2.11
522,Tura,68,IN,1538234057,95,25.52,90.21,24.76,1.26
523,Humberto de Campos,20,BR,1538234058,82,-2.6,-43.46,28.96,8.51
524,Komsomolets,92,RU,1538234058,98,52.77,41.29,7.51,3.06
525,San Carlos,40,VE,1538229600,74,9.66,-68.59,29.0,3.91
526,Seoni Malwa,0,IN,1538234058,61,22.45,77.47,25.31,2.21
527,Nazarovo,0,RU,1538234059,61,56.01,90.42,9.31,4.81
528,Khudumelapye,68,BW,1538234059,28,-23.91,24.95,29.26,4.46
