,City,Cloudiness,Country,Date,Humidity,Lat,Lng,Max Temp,Wind Speed
0,Kavieng,20,PG,1538197531,100,-2.57,150.8,30.25,2.47
1,Padang,48,ID,1538197554,100,-0.92,100.36,26.61,2.57
2,Butaritari,24,KI,1538197530,100,3.07,172.79,30.0,2.07
3,Carnarvon,0,ZA,1538197554,38,-30.97,22.13,6.91,5.62
4,Coracora,8,PE,1538197346,74,-15.02,-73.78,-1.95,1.67
5,New Norfolk,75,AU,1538193600,43,-42.78,147.06,13.0,7.7
6,Avarua,75,CK,1538193600,60,-21.21,-159.78,23.0,1.0
7,East London,20,ZA,1538193600,58,-33.02,27.91,14.0,5.7
8,Thompson,90,CA,1538193600,89,55.74,-97.86,0.0,4.6
9,Victoria,75,BN,1538195400,83,5.28,115.24,32.0,1.0
10,Busselton,92,AU,1538197555,88,-33.64,115.35,18.5,4.22
11,Georgetown,0,GY,1538193600,94,6.8,-58.16,25.0,1.0
12,Atar,8,MR,1538197556,44,20.52,-13.05,20.16,1.42
13,Mataura,92,NZ,1538197527,99,-46.19,168.86,10.06,2.67
14,Bredasdorp,0,ZA,1538193600,76,-34.53,20.04,11.0,2.1
15,Petropavlovsk-Kamchatskiy,0,RU,1538195400,45,53.05,158.65,18.0,3.0
16,Punta Arenas,90,CL,1538193600,93,-53.16,-70.91,3.0,3.1
17,Sault Sainte Marie,90,CA,1538193600,79,46.49,-84.36,7.8,3.1
18,Kahului,20,US,1538193360,74,20.89,-156.47,28.3,6.7
19,Vaini,68,IN,1538197349,84,15.34,74.49,26.91,1.42
20,Omsukchan,100,RU,1538197349,95,62.53,155.8,1.5,6.12
21,Saint George,75,GR,1538194800,63,39.45,22.34,16.0,3.1
22,Chuy,92,UY,1538197341,94,-33.69,-53.46,18.06,10.67
23,Ushuaia,90,AR,1538193600,100,-54.81,-68.31,0.0,1.32
24,Bethel,75,US,1538193180,62,60.79,-161.76,16.1,2.1
25,Kajaani,0,FI,1538196600,92,64.22,27.73,-5.0,1.0
26,Rikitea,48,PF,1538197559,100,-23.12,-134.97,22.11,2.27
27,Arraial do Cabo,48,BR,1538197540,100,-22.97,-42.02,22.0,3.02
28,Severo-Kurilsk,8,RU,1538197350,88,50.68,156.12,10.91,2.97
29,Hasaki,75,JP,1538195400,73,35.73,140.83,23.0,0.5
30,Kendari,92,ID,1538197351,76,-3.99,122.52,27.21,2.32
31,Cap Malheureux,40,MU,1538193600,69,-19.98,57.61,24.0,4.6
32,Dandong,100,CN,1538197351,87,40.12,124.37,18.16,3.02
33,Kesinga,20,IN,1538197351,70,20.19,83.22,32.71,2.07
34,Bluff,0,AU,1538197559,26,-23.58,149.07,31.46,1.97
35,Santa Cruz,1,US,1538195700,82,36.97,-122.03,16.1,3.6
36,Goderich,0,CA,1538197353,78,43.74,-81.71,11.41,6.07
37,Dikson,24,RU,1538197562,87,73.51,80.55,5.41,10.32
38,Cabo San Lucas,75,MX,1538192760,94,22.89,-109.91,28.0,3.17
39,Chokurdakh,44,RU,1538197563,96,70.62,147.9,0.56,2.07
40,Albany,20,US,1538196660,86,42.65,-73.75,13.3,2.6
41,Kruisfontein,88,ZA,1538197563,79,-34.0,24.73,16.66,4.97
42,Prince Rupert,1,CA,1538193600,100,54.32,-130.32,11.0,2.1
43,Tabou,68,CI,1538197563,100,4.42,-7.36,25.56,5.12
44,Calnali,92,MX,1538197563,100,20.9,-98.58,20.21,1.07
45,Jumla,0,NP,1538197563,85,29.28,82.18,10.66,0.52
46,Barrow,64,AR,1538197355,98,-38.31,-60.23,15.21,2.57
47,Araouane,48,ML,1538197564,41,18.9,-3.53,23.66,1.27
48,Puerto Ayora,76,EC,1538197355,100,-0.74,-90.35,21.21,4.32
49,Bilma,0,NE,1538197564,37,18.69,12.92,22.66,0.97
50,Peleduy,8,RU,1538197624,75,59.63,112.75,10.06,1.42
51,Grindavik,75,IS,1538195400,81,63.84,-22.43,7.0,11.3
52,Lazaro Cardenas,5,MX,1538192460,63,28.39,-105.62,18.0,3.6
53,Kilindoni,68,TZ,1538197625,96,-7.91,39.67,26.21,5.07
54,Kot Addu,0,PK,1538193600,57,30.47,70.97,27.0,1.87
55,Axim,68,GH,1538197625,99,4.87,-2.24,25.25,4.12
56,Beloha,0,MG,1538197625,46,-25.17,45.06,27.31,3.02
57,Hobart,75,AU,1538193600,43,-42.88,147.33,13.0,7.7
58,Medicine Hat,90,CA,1538193600,75,50.04,-110.68,6.0,3.1
59,Nicoya,75,CR,1538197200,100,10.15,-85.45,24.0,1.5
60,Bilibino,20,RU,1538197626,64,68.06,166.44,5.31,1.77
61,Ojinaga,0,US,1538197626,45,29.56,-104.41,15.75,2.07
62,Wajima,75,JP,1538193600,93,37.4,136.9,17.0,1.0
63,Saint-Philippe,90,CA,1538196900,82,45.36,-73.48,13.9,5.1
64,Tuktoyaktuk,90,CA,1538193600,79,69.44,-133.03,-2.0,5.1
65,Bozdar,0,PK,1538197627,49,27.18,68.64,33.46,2.02
66,Ballina,0,IE,1538197627,100,54.11,-9.15,2.25,3.32
67,Grand Gaube,40,MU,1538193600,69,-20.01,57.66,24.0,4.6
68,Albanel,24,CA,1538197627,86,48.88,-72.44,7.36,3.77
69,Bani,80,PH,1538197627,91,15.89,120.27,27.41,2.67
70,Jamestown,0,AU,1538197488,34,-33.21,138.6,15.66,2.97
71,Letovice,0,CZ,1538195400,70,49.55,16.57,8.0,4.6
72,Longyearbyen,75,NO,1538193000,68,78.22,15.63,-2.0,5.1
73,Vaitape,92,PF,1538197628,100,-16.52,-151.75,25.11,4.37
74,San Carlos de Bariloche,40,AR,1538193600,80,-41.13,-71.31,5.0,7.7
75,Zhigansk,64,RU,1538197628,84,66.77,123.37,4.11,2.42
76,Coihueco,0,CL,1538193600,93,-36.63,-71.83,11.0,6.2
77,Mareeba,20,AU,1538193600,45,-16.99,145.42,28.0,9.8
78,Tokat,0,TR,1538193000,71,40.33,36.55,10.0,3.1
79,Ikom,92,NG,1538197628,99,5.96,8.72,22.16,1.87
80,Aksu,0,KZ,1538195400,62,52.04,76.93,12.0,5.0
81,Kloulklubed,75,PW,1538193240,70,7.04,134.26,30.0,4.6
82,Ribeira Grande,44,PT,1538197555,100,38.52,-28.7,22.31,6.47
83,Ugoofaaru,100,MV,1538197629,100,5.67,73.0,27.66,7.62
84,Swift Current,90,CA,1538193600,59,50.29,-107.8,2.0,2.1
85,Qaanaaq,0,GL,1538197548,100,77.48,-69.36,-11.2,2.97
86,Belyy Yar,90,RU,1538195400,100,53.6,91.39,10.0,2.0
87,Hithadhoo,92,MV,1538197543,100,-0.6,73.08,27.16,4.52
88,Senanga,0,ZM,1538197630,33,-16.1,23.3,24.5,4.47
89,Colina,90,CL,1538197200,81,-33.2,-70.67,12.0,3.1
90,Vila Franca do Campo,75,PT,1538195400,88,37.72,-25.43,20.0,1.0
91,Dzaoudzi,0,YT,1538195400,83,-12.79,45.27,25.0,2.1
92,Lebu,20,ET,1538197590,33,8.96,38.73,19.31,1.57
93,Intipuca,48,SV,1538197630,100,13.2,-88.05,23.75,2.07
94,Micoud,40,LC,1538193600,74,13.82,-60.9,29.0,7.2
95,Barmer,0,IN,1538197630,40,25.74,71.4,34.81,2.22
96,Limoges,75,FR,1538197200,81,45.84,1.26,11.0,5.1
97,Darhan,92,MN,1538197631,97,49.49,105.92,4.71,3.57
98,Nanortalik,0,GL,1538197631,94,60.14,-45.24,2.81,12.07
99,Nikolskoye,0,RU,1538195400,80,59.7,30.79,1.0,2.0
100,Honiara,75,SB,1538193600,70,-9.43,159.96,31.0,4.1
101,Cape Town,0,ZA,1538193600,62,-33.93,18.42,12.0,6.2
102,Praxedis Guerrero,1,MX,1538196660,24,31.37,-106.02,26.7,4.02
103,Souillac,0,FR,1538197200,81,45.6,-0.6,12.0,3.6
104,Maunabo,90,PR,1538195280,100,18.01,-65.9,25.0,1.5
105,Nkhotakota,0,MW,1538197652,65,-12.93,34.3,24.91,1.42
106,Lagos,20,NG,1538193600,94,6.46,3.39,25.0,1.57
107,Thinadhoo,88,MV,1538197653,100,0.53,72.93,27.25,6.17
108,Banda Aceh,20,ID,1538197653,88,5.56,95.32,27.75,1.02
109,Trelew,0,AR,1538197653,50,-43.25,-65.31,11.41,5.92
110,Abha,0,SA,1538193600,34,18.22,42.5,19.0,2.6
111,Lagunas,8,PE,1538197653,94,-5.23,-75.68,24.46,0.77
112,Katsuura,90,JP,1538194440,100,33.93,134.5,19.0,3.6
113,Teahupoo,40,PF,1538195400,69,-17.83,-149.27,26.0,5.1
114,Mountain Home,1,US,1538193180,33,43.13,-115.69,17.2,2.1
115,Los Llanos de Aridane,12,ES,1538197200,78,28.66,-17.92,23.0,4.6
116,Airai,0,TL,1538197654,39,-8.93,125.41,30.71,0.77
117,Lishan,80,CN,1538197654,91,24.07,102.75,18.71,1.52
118,Knarvik,92,NO,1538197654,100,60.55,5.29,8.0,4.87
119,Port Elizabeth,1,US,1538196900,100,39.31,-74.98,15.8,1.37
120,Tougan,32,BF,1538197655,79,13.07,-3.07,23.71,3.47
121,Tiksi,92,RU,1538197559,96,71.64,128.87,1.06,2.92
122,Kodiak,90,US,1538193180,71,39.95,-94.76,10.0,3.6
123,Springdale,90,US,1538193480,84,36.19,-94.13,18.3,3.1
124,Coahuayana,68,MX,1538197656,90,18.62,-100.35,17.61,0.92
125,Hofn,0,IS,1538197656,95,64.25,-15.21,7.5,9.72
126,Vila Velha,75,BR,1538197200,83,-3.71,-38.6,26.0,4.1
127,Kutum,0,SD,1538197656,40,14.2,24.66,26.86,2.52
128,Bud,75,NO,1538196600,75,62.91,6.91,9.0,7.7
129,Livingstonia,0,MW,1538197656,71,-10.61,34.11,22.16,1.97
130,Chapais,75,CA,1538193600,93,49.78,-74.86,2.0,4.1
131,Shenjiamen,36,CN,1538197657,88,29.96,122.3,24.86,14.22
132,Yellowknife,75,CA,1538193600,96,62.45,-114.38,0.0,8.2
133,Fortuna,0,ES,1538197200,93,38.18,-1.13,16.0,2.6
134,Banapur,12,IN,1538197657,94,19.78,85.18,31.06,1.62
135,Agadez,36,NE,1538197657,24,16.97,7.99,25.0,2.37
136,Port Alfred,92,ZA,1538197658,100,-33.59,26.89,15.81,6.27
137,Mercedes,12,UY,1538197658,76,-33.25,-58.03,23.81,8.17
138,Provideniya,92,RU,1538197529,84,64.42,-173.23,9.41,11.97
139,Tignere,48,CM,1538197658,90,7.37,12.65,17.31,1.32
140,Bambous Virieux,40,MU,1538193600,69,-20.34,57.76,24.0,4.6
141,Makakilo City,1,US,1538193420,74,21.35,-158.09,28.9,3.1
142,Saint-Paul,0,FR,1538195400,71,45.22,1.9,13.0,3.6
143,Pangnirtung,0,CA,1538197659,84,66.15,-65.72,-4.95,1.17
144,Road Town,90,VG,1538193180,87,18.42,-64.62,25.6,3.6
145,Constantine,0,DZ,1538195400,93,36.36,6.61,9.0,1.62
146,Moose Factory,75,CA,1538193600,93,51.26,-80.61,0.0,1.5
147,Andrushivka,92,UA,1538197660,100,50.03,29.02,9.81,4.82
148,Krasnoye,0,RU,1538195400,76,44.87,39.46,13.0,2.0
149,Bathsheba,40,BB,1538193600,74,13.22,-59.52,28.0,9.3
150,Moosomin,24,CA,1538197680,75,50.14,-101.67,-5.2,1.77
151,Castro,76,CL,1538197588,99,-42.48,-73.76,6.71,2.97
152,Manturovo,92,RU,1538197680,94,58.33,44.76,6.21,4.47
153,Yar-Sale,80,RU,1538197681,100,66.83,70.83,7.96,7.02
154,Hermanus,0,ZA,1538197681,82,-34.42,19.24,9.16,1.87
155,Kaitangata,92,NZ,1538197681,68,-46.28,169.85,13.25,5.97
156,Agirish,68,RU,1538197681,82,61.92,63.02,6.71,3.02
157,Vostok,0,RU,1538197681,54,46.45,135.83,15.16,1.27
158,Auch,0,FR,1538197200,72,43.65,0.59,16.0,2.6
159,Luderitz,0,NA,1538197682,70,-26.65,15.16,14.5,5.07
160,Hilo,90,US,1538195760,87,19.71,-155.08,26.7,1.5
161,Porto Walter,32,BR,1538197514,90,-8.27,-72.74,24.06,1.12
162,Nome,40,US,1538196900,86,30.04,-94.42,24.5,2.82
163,Cidreira,8,BR,1538197682,89,-30.17,-50.22,19.71,8.37
164,Melfort,1,CA,1538193600,74,52.87,-104.61,-2.0,3.1
165,Nelson Bay,8,AU,1538193600,40,-32.72,152.14,20.0,8.7
166,Codrington,48,AU,1538197682,49,-28.95,153.24,25.16,3.42
167,Grand Baie,40,MU,1538193600,69,-20.02,57.58,24.0,4.6
168,Varhaug,75,NO,1538196600,81,58.61,5.65,11.0,7.2
169,Esperance,20,TT,1538193600,94,10.24,-61.45,26.0,3.47
170,Kijang,90,KR,1538193600,93,35.24,129.21,18.0,2.1
171,Lata,0,IN,1538197683,84,30.78,78.62,18.31,0.87
172,Tshela,88,CD,1538197683,89,-4.99,12.94,21.81,1.77
173,Deneysville,20,ZA,1538197683,74,-26.89,28.1,17.66,2.67
174,Yaan,92,NG,1538197684,98,7.38,8.57,22.21,2.02
175,Ahipara,0,NZ,1538197546,78,-35.17,173.16,13.21,2.27
176,Samfya,8,ZM,1538197684,38,-11.37,29.56,24.16,6.77
177,Mildura,0,AU,1538197684,40,-34.18,142.16,16.41,3.92
178,Puerto Leguizamo,20,CO,1538197684,92,-0.19,-74.78,24.56,0.97
179,Miyako,75,JP,1538195400,82,33.63,130.94,20.0,4.6
180,Asosa,48,ET,1538197684,100,10.07,34.53,18.56,1.72
181,Pontian Kecil,75,MY,1538195400,62,1.48,103.39,33.0,3.1
182,Pyshchug,92,RU,1538197685,95,58.89,45.71,6.21,3.72
183,Jacareacanga,56,BR,1538197685,97,-6.22,-57.76,22.36,0.97
184,Forbes,0,AU,1538197685,57,-33.38,148.01,13.06,5.82
185,Srivardhan,76,IN,1538197685,92,18.03,73.02,27.56,1.82
186,Latung,36,ID,1538197685,67,-8.45,120.42,28.31,2.87
187,Haines Junction,0,CA,1538197532,86,60.75,-137.51,-4.35,0.87
188,Mount Gambier,76,AU,1538197503,67,-37.83,140.78,12.81,3.12
189,Russell,0,AR,1538193600,63,-33.01,-68.8,17.0,5.1
190,Ahuimanu,40,US,1538193420,91,21.44,-157.84,28.9,3.6
191,Port Blair,0,IN,1538197681,99,11.67,92.75,29.21,1.32
192,Ulety,32,RU,1538197686,75,51.36,112.48,11.0,2.67
193,Husavik,76,CA,1538197686,98,50.56,-96.99,-0.85,2.42
194,Pittsfield,90,US,1538195700,78,39.61,-90.81,10.1,2.1
195,Toro,75,CO,1538193600,88,4.61,-76.08,20.0,0.42
196,Shiyan,0,CN,1538197555,45,32.65,110.78,25.11,1.37
197,Bjornevatn,8,NO,1538196600,86,69.67,29.98,-2.0,5.7
198,Bandarbeyla,0,SO,1538197687,93,9.49,50.81,26.06,8.22
199,Puerto Escondido,32,MX,1538197537,99,15.86,-97.07,30.25,10.57
200,Ponta do Sol,80,BR,1538197707,81,-20.63,-46.0,20.31,2.42
201,Zhicheng,0,CN,1538197707,42,35.04,112.59,27.86,4.12
202,Baykit,0,RU,1538197707,80,61.68,96.39,6.56,4.57
203,Loksa,40,EE,1538196600,86,59.58,25.72,1.0,0.5
204,Sao Filipe,12,CV,1538197708,97,14.9,-24.5,25.31,7.02
205,Tautira,40,PF,1538195400,69,-17.73,-149.15,26.0,5.1
206,Gizo,0,IL,1538194800,49,31.8,34.94,22.0,1.0
207,Kapaa,90,US,1538193360,90,22.08,-159.32,28.3,7.2
208,Zomin,0,UZ,1538197437,47,39.96,68.4,21.66,2.52
209,Ancud,92,CL,1538197562,95,-41.87,-73.83,7.41,3.02
210,Bayanday,0,RU,1538197709,79,53.07,105.52,9.66,1.72
211,Riohacha,68,CO,1538197709,100,11.54,-72.91,26.41,5.37
212,Dingle,64,PH,1538197709,85,11.0,122.67,27.41,5.32
213,Ilulissat,92,GL,1538196600,80,69.22,-51.1,1.0,5.7
214,Ciro Marina,24,IT,1538197709,100,39.37,17.13,23.0,7.92
215,Canton,40,US,1538196960,79,40.8,-81.38,13.9,2.6
216,Mogadishu,75,SO,1538193600,78,2.04,45.34,27.0,7.2
217,Zarubino,20,RU,1538197710,84,42.65,131.06,19.06,4.92
218,Khani,75,GE,1538195400,87,41.96,42.96,16.0,2.1
219,Mar del Plata,0,AR,1538197710,67,-46.43,-67.52,9.5,5.72
220,Saskylakh,88,RU,1538197710,100,71.97,114.09,2.81,1.32
221,Najran,0,SA,1538193600,28,17.54,44.22,22.0,1.92
222,Tonantins,92,BR,1538197710,96,-2.86,-67.77,23.66,1.17
223,Benguela,0,AO,1538197711,100,-12.58,13.4,20.61,2.37
224,Kattivakkam,40,IN,1538197200,66,13.22,80.32,32.0,2.1
225,Ayan,0,TR,1538197711,68,40.67,33.6,12.66,1.22
226,Buala,68,SB,1538197711,99,-8.15,159.59,26.81,2.32
227,Marsaxlokk,75,MT,1538194500,60,35.84,14.54,21.0,3.6
228,Chandrakona,12,IN,1538197711,78,22.73,87.51,34.56,1.92
229,Hami,48,CN,1538197712,43,42.84,93.51,21.41,2.07
230,Burnie,48,AU,1538197640,100,-41.05,145.91,11.56,9.87
231,Caravelas,92,BR,1538197712,100,-17.73,-39.27,24.56,5.72
232,Andijan,0,UZ,1538193600,45,40.76,72.37,22.0,1.82
233,Torbay,90,CA,1538195580,100,47.66,-52.73,12.0,2.6
234,Leningradskiy,92,RU,1538197560,90,69.38,178.42,5.56,11.37
235,Balabac,12,PH,1538197712,100,7.99,117.06,28.66,4.57
236,Tasiilaq,0,GL,1538196600,35,65.61,-37.64,5.0,9.3
237,Kristianstad,44,SE,1538197712,100,56.03,14.16,10.06,4.22
238,Namatanai,0,PG,1538197713,90,-3.66,152.44,30.06,4.82
239,Nassau,0,DE,1538196600,80,51.17,13.51,4.0,1.0
240,Beringovskiy,92,RU,1538197637,96,63.05,179.32,9.16,9.32
241,Guiren,40,TW,1538195400,45,22.97,120.29,31.0,6.7
242,Guerrero Negro,0,MX,1538197423,99,27.97,-114.04,19.56,2.52
243,Gobabis,0,NA,1538193600,22,-22.45,18.97,19.0,1.0
244,Dunedin,64,NZ,1538197713,63,-45.87,170.5,12.81,5.02
245,Muli,0,IN,1538197713,44,22.62,71.45,33.16,2.82
246,Vanimo,0,PG,1538197563,100,-2.67,141.3,28.71,3.52
247,Glace Bay,90,CA,1538193600,100,46.2,-59.96,17.0,5.7
248,Xining,8,CN,1538197714,56,36.62,101.77,13.21,1.22
249,Atuona,36,PF,1538197712,100,-9.8,-139.03,26.56,4.17
250,Okhotsk,68,RU,1538197734,77,59.36,143.24,7.96,6.97
251,La Ronge,90,CA,1538193600,64,55.1,-105.3,2.0,2.6
252,Vagur,88,FO,1538197734,93,61.47,-6.81,10.71,15.57
253,Toul,0,FR,1538197200,70,48.68,5.89,8.0,3.6
254,Arlit,64,NE,1538197734,29,18.74,7.39,25.31,0.82
255,Salalah,75,OM,1538193000,69,17.01,54.1,26.0,1.5
256,Itaituba,32,BR,1538197735,74,-4.26,-55.99,26.96,1.67
257,Pevek,92,RU,1538197735,91,69.7,170.27,6.41,2.87
258,Khatanga,0,RU,1538197735,96,71.98,102.47,7.5,4.22
259,Grand-Santi,0,GF,1538197735,95,4.27,-54.38,23.5,1.22
260,Upernavik,88,GL,1538197533,100,72.79,-56.15,0.96,10.52
261,Horsham,56,AU,1538197517,72,-36.71,142.2,13.86,4.37
262,Delta del Tigre,90,UY,1538197200,88,-34.76,-56.41,19.0,7.2
263,Lavrentiya,100,RU,1538197720,86,65.58,-170.99,8.11,11.72
264,Sao Joao da Barra,88,BR,1538197714,100,-21.64,-41.05,23.11,5.17
265,Blagoyevo,88,RU,1538197736,96,63.37,47.92,4.75,2.57
266,Banjar,0,ID,1538197736,43,-7.37,108.54,31.81,1.82
267,Turan,64,RU,1538197472,81,52.15,93.92,11.16,1.17
268,Norman Wells,75,CA,1538195220,69,65.28,-126.83,1.0,4.6
269,Zyryanovsk,12,KZ,1538197737,52,49.74,84.27,17.25,1.27
270,Lillehammer,92,NO,1538197737,96,61.11,10.47,0.0,0.97
271,Katol,20,IN,1538197200,62,21.28,78.59,32.0,2.12
272,Namibe,76,AO,1538197576,97,-15.19,12.15,20.75,5.37
273,Caluquembe,88,AO,1538197737,81,-13.78,14.68,16.91,1.32
274,Curuguaty,44,PY,1538197737,86,-24.47,-55.69,23.5,1.62
275,San Rafael,76,AR,1538197739,78,-34.61,-68.33,9.36,3.17
276,El Jicaro,32,GT,1538197739,82,14.91,-89.89,19.5,0.77
277,Ust-Karsk,0,RU,1538197739,43,52.71,118.82,15.96,2.32
278,San Patricio,8,PY,1538197739,85,-26.98,-56.83,23.46,1.77
279,Anadyr,90,RU,1538195400,93,64.73,177.51,9.0,11.0
280,Mahebourg,40,MU,1538193600,69,-20.41,57.7,24.0,4.6
281,Nuuk,88,GL,1538196600,80,64.17,-51.74,2.0,7.2
282,Beyneu,8,KZ,1538197740,36,45.32,55.19,19.25,2.72
283,Tuatapere,92,NZ,1538197740,100,-46.13,167.69,9.91,4.22
284,Parfenyevo,80,RU,1538197740,95,58.48,43.41,5.56,7.17
285,Weston,1,US,1538196960,92,41.2,-73.38,15.6,1.77
286,Tandil,76,AR,1538197741,99,-37.33,-59.14,15.5,1.42
287,Porto Belo,75,BR,1538193600,94,-27.15,-48.54,21.0,2.1
288,Saldanha,0,PT,1538197741,81,41.42,-6.55,12.21,2.82
289,Rawson,0,AR,1538197741,50,-43.3,-65.11,11.41,5.92
290,San Andres,8,PH,1538197741,99,13.32,122.68,28.81,7.07
291,Lloret de Mar,0,ES,1538197200,100,41.7,2.85,15.0,1.27
292,Angoram,20,PG,1538197601,87,-4.06,144.07,28.66,1.77
293,Luanda,75,AO,1538193600,94,-8.83,13.24,21.0,2.1
294,Srednekolymsk,44,RU,1538197742,70,67.46,153.71,2.21,2.92
295,Port Hedland,40,AU,1538193600,40,-20.31,118.58,32.0,7.7
296,Homer,90,US,1538193180,89,59.64,-151.54,12.2,2.42
297,Mount Isa,44,AU,1538193600,14,-20.73,139.49,34.0,3.6
298,Nhulunbuy,40,AU,1538193600,51,-12.18,136.78,29.0,7.7
299,Suez,0,EG,1538197742,59,29.97,32.54,23.71,1.72
300,Strathmore,75,CA,1538197500,80,51.04,-113.4,4.0,5.1
301,Tibati,20,CM,1538197763,93,6.47,12.63,18.0,1.47
302,Taoudenni,0,ML,1538197763,46,22.68,-3.98,18.86,1.32
303,Nsoko,92,ZA,1538197763,84,-27.07,31.93,18.91,4.22
304,Isiro,76,CD,1538197763,95,2.77,27.62,22.56,1.32
305,Timbuktu,8,ML,1538197764,66,16.77,-3.01,24.71,3.32
306,Yarmouth,0,GB,1538196600,93,50.71,-1.5,5.0,1.5
307,Henties Bay,0,NA,1538197764,97,-22.12,14.28,13.41,1.42
308,Praya,40,ID,1538197200,49,-8.71,116.27,33.0,1.5
309,Sitka,92,US,1538197724,97,37.17,-99.65,12.71,5.27
310,Saint-Joseph,0,FR,1538197200,87,43.56,6.97,18.0,2.1
311,Port Arthur,1,US,1538196900,87,29.9,-93.93,27.0,3.1
312,Honningsvag,64,NO,1538197695,100,70.98,25.97,2.81,5.57
313,Sola,75,NO,1538196600,81,58.89,5.65,11.0,7.2
314,Meulaboh,36,ID,1538197765,100,4.14,96.13,27.66,2.87
315,Kushiro,40,JP,1538193600,82,43.11,144.15,16.0,5.1
316,Tlanalapa,75,MX,1538192460,59,19.82,-98.6,18.0,1.5
317,Port Macquarie,20,AU,1538193600,40,-31.43,152.91,21.0,6.7
318,Hualmay,20,PE,1538197766,89,-11.1,-77.61,12.41,1.92
319,Zyryanka,92,RU,1538197766,80,65.73,150.89,0.81,4.02
320,Kokoda,0,PG,1538197766,41,-8.88,147.74,25.25,0.77
321,Puerto Colombia,40,CO,1538193600,88,10.99,-74.96,27.0,5.1
322,Maksatikha,0,RU,1538197691,85,57.8,35.88,2.91,5.12
323,Karratha,0,AU,1538197767,18,-20.74,116.85,33.16,5.32
324,Birao,8,CF,1538197767,90,10.3,22.78,25.41,1.17
325,Saint Pete Beach,75,US,1538195700,87,27.73,-82.74,27.8,2.6
326,Wagar,64,US,1538197767,89,31.44,-87.99,23.5,1.07
327,Krasnogorskoye,92,RU,1538197767,96,57.7,52.5,5.31,5.57
328,Dakar,44,SN,1538197768,97,14.69,-17.45,27.56,3.77
329,Porto Murtinho,76,BR,1538197768,76,-21.7,-57.88,24.75,2.87
330,Berlevag,32,NO,1538197573,100,70.86,29.09,0.75,4.47
331,Pingdingshan,0,CN,1538197768,40,33.74,113.3,29.61,3.27
332,Sept-Iles,90,CA,1538193600,87,50.2,-66.38,7.0,5.7
333,Pacific Grove,1,US,1538195700,82,36.62,-121.92,15.0,3.6
334,Rincon,1,US,1538196960,91,32.3,-81.24,28.0,1.12
335,Chanute,90,US,1538195700,64,37.68,-95.46,17.2,4.1
336,Vegreville,76,CA,1538197590,72,53.5,-112.05,0.96,3.32
337,Jaisalmer,0,IN,1538197769,43,26.91,70.91,34.0,3.27
338,Skibbereen,20,IE,1538195400,93,51.55,-9.27,5.0,2.6
339,Hambantota,68,LK,1538197702,96,6.12,81.12,28.25,2.87
340,Jardim,80,BR,1538197769,90,-21.48,-56.15,22.25,1.97
341,Coquimbo,75,CL,1538193600,93,-29.95,-71.34,13.0,3.1
342,San Luis,0,AR,1538197770,55,-33.3,-66.34,17.0,4.77
343,Te Anau,92,NZ,1538197506,96,-45.41,167.72,8.16,2.72
344,Lorengau,32,PG,1538197770,98,-2.02,147.27,29.31,4.77
345,Alofi,44,NU,1538193600,69,-19.06,-169.92,25.0,7.2
346,Paamiut,92,GL,1538197575,97,61.99,-49.67,4.16,2.67
347,Tshikapa,56,CD,1538197771,91,-6.42,20.79,23.71,1.27
348,Cortez,1,US,1538193180,10,37.35,-108.58,11.1,2.6
349,Makat,24,KZ,1538197771,58,47.65,53.35,17.91,3.77
350,San Cristobal,75,EC,1538193600,87,-0.39,-78.55,11.0,2.1
351,Pisco,0,PE,1538193600,93,-13.71,-76.2,16.0,5.1
352,Niteroi,0,BR,1538193600,88,-29.95,-51.16,20.0,6.2
353,Shimoda,90,JP,1538193600,64,34.7,138.93,22.0,4.1
354,Norwich,0,GB,1538196600,100,52.63,1.29,5.0,1.5
355,Veracruz,40,VE,1538193600,94,7.66,-72.25,25.0,1.5
356,Necochea,92,AR,1538197792,94,-38.55,-58.74,16.31,4.57
357,Syracuse,75,US,1538196960,86,43.05,-76.15,13.3,4.1
358,Havelock,40,US,1538196840,100,34.88,-76.9,25.0,2.1
359,Palimbang,75,PH,1538193600,62,14.9,120.78,31.0,2.1
360,Dolores,0,UY,1538197793,74,-33.53,-58.22,23.81,9.07
361,Vestmannaeyjar,92,IS,1538197793,92,63.44,-20.27,8.06,9.77
362,Zakamensk,24,RU,1538197793,57,50.38,103.29,7.61,1.62
363,Noumea,90,NC,1538195400,47,-22.28,166.46,25.0,4.1
364,Heishan,92,CN,1538197794,76,41.69,122.12,16.46,1.67
365,Torres,88,BR,1538197794,99,-29.34,-49.73,18.96,5.82
366,Hobyo,76,SO,1538197794,83,5.35,48.53,26.21,5.62
367,Redlands,1,US,1538196000,56,34.06,-117.19,23.0,1.5
368,Lasa,0,CY,1538197200,50,34.92,32.53,26.0,1.5
369,Letka,0,BA,1538193600,57,43.74,17.27,11.0,2.1
370,Lompoc,1,US,1538195700,93,34.64,-120.46,16.7,2.72
371,Udgir,0,IN,1538197795,78,18.39,77.12,31.06,1.62
372,Porto Novo,40,BR,1538197200,93,-23.68,-45.44,18.0,1.27
373,Enshi,0,CN,1538197795,70,30.29,109.48,23.0,1.32
374,Summerville,1,US,1538196900,100,33.02,-80.17,26.0,1.07
375,Margate,75,AU,1538193600,43,-43.03,147.26,13.0,7.7
376,Bonfim,0,BR,1538193600,77,-20.33,-44.24,21.0,5.1
377,Sarrebourg,0,FR,1538197200,70,48.73,7.05,9.0,5.7
378,Sinnamary,32,GF,1538197796,96,5.38,-52.96,27.66,5.82
379,Jasper,1,US,1538195700,100,33.83,-87.28,20.6,1.07
380,Ouallam,36,NE,1538197797,78,14.32,2.08,23.66,3.12
381,Tabuk,80,PH,1538197605,66,17.41,121.44,27.46,1.07
382,Maceio,40,BR,1538197200,94,-9.67,-35.74,21.0,2.1
383,Belturbet,0,GB,1538197797,87,54.1,-7.44,2.56,3.57
384,Victor Harbor,0,AU,1538193600,47,-35.55,138.62,15.0,7.7
385,Keetmanshoop,0,NA,1538197732,26,-26.57,18.15,11.5,3.22
386,Matay,0,EG,1538197797,40,28.42,30.79,26.06,3.02
387,Mango,0,IT,1538197200,87,44.69,8.15,19.0,2.6
388,Port-Gentil,68,GA,1538197797,99,-0.72,8.78,25.21,2.42
389,Naze,92,NG,1538193600,94,5.43,7.07,23.0,1.87
390,Santa Barbara,1,US,1538195700,93,34.42,-119.7,18.9,3.12
391,Labuhan,20,ID,1538197563,59,-2.54,115.51,31.71,1.47
392,Sharjah,0,AE,1538193600,31,25.36,55.39,33.0,4.1
393,Podyuga,88,RU,1538197798,95,61.09,40.86,5.46,5.77
394,Mayo,5,CA,1538193600,38,63.59,-135.9,4.0,3.6
395,Sawtell,40,AU,1538193600,88,-30.38,153.1,21.0,3.1
396,Usinsk,88,RU,1538197799,100,66.0,57.56,4.21,1.97
397,Talnakh,76,RU,1538197799,85,69.49,88.39,9.5,9.57
398,Blairmore,90,CA,1538197620,93,49.61,-114.44,2.0,3.1
399,Champua,0,IN,1538197799,79,22.04,85.66,31.31,2.02
400,Cabedelo,40,BR,1538193600,94,-6.97,-34.84,23.0,2.6
401,Rocha,92,UY,1538197820,97,-34.48,-54.34,18.0,9.32
402,Lagoa,0,PT,1538195400,83,37.14,-8.45,21.0,2.6
403,Cherskiy,32,RU,1538197728,79,68.75,161.3,4.91,2.17
404,Puerto Cabezas,64,NI,1538197820,100,14.04,-83.39,26.16,3.37
405,Quang Ngai,24,VN,1538197809,70,15.12,108.8,29.46,1.42
406,Trat,75,TH,1538197200,70,12.25,102.51,33.0,2.1
407,Iqaluit,90,CA,1538193600,100,63.75,-68.52,0.0,2.1
408,Plouzane,0,FR,1538197200,81,48.38,-4.62,11.0,3.1
409,Erenhot,76,CN,1538197821,43,43.65,111.97,9.36,8.42
410,Novyy Svit,0,UA,1538197821,66,47.81,38.02,13.81,2.32
411,Calabozo,76,VE,1538197821,83,8.92,-67.43,26.31,3.52
412,Bulawayo,0,ZW,1538197821,39,-20.16,28.59,22.46,4.92
413,Nakamura,75,JP,1538195400,88,35.17,136.87,19.0,5.7
414,Bakchar,0,RU,1538197821,57,57.02,82.07,11.56,5.22
415,Shelburne,90,CA,1538195220,81,44.08,-80.2,11.0,2.1
416,Vardo,75,US,1538196900,100,39.62,-77.74,17.2,1.87
417,Stari Bohorodchany,75,UA,1538195400,100,48.84,24.53,9.0,2.0
418,San Policarpo,76,PH,1538197822,89,12.18,125.51,29.41,3.02
419,Udachnyy,0,RU,1538197822,84,66.42,112.4,8.91,1.77
420,Sorong,32,ID,1538197822,100,-0.86,131.25,27.5,3.12
421,Prescott,1,US,1538193180,31,34.54,-112.47,21.7,3.6
422,Cloquet,90,US,1538195700,74,46.72,-92.46,3.0,4.12
423,Benghazi,88,LY,1538197823,100,32.12,20.07,25.11,11.42
424,Nehe,92,CN,1538197823,54,48.48,124.88,16.86,5.52
425,Juneau,75,US,1538193360,96,58.3,-134.42,8.3,2.1
426,Emerald,0,AU,1538197552,29,-23.53,148.16,31.41,2.22
427,Brejo da Madre de Deus,80,BR,1538197823,100,-8.14,-36.37,16.46,2.32
428,Narsaq,0,GL,1538196600,64,60.91,-46.05,1.0,2.6
429,Coihaique,20,CL,1538193600,75,-45.58,-72.07,8.0,3.1
430,Japura,12,ID,1538197824,67,-0.42,102.29,32.16,1.12
431,Qaqortoq,0,GL,1538196600,64,60.72,-46.03,1.0,2.6
432,Flinders,40,AU,1538193600,38,-34.58,150.85,15.0,6.7
433,Severnoye,92,RU,1538197824,67,54.09,52.54,13.41,8.27
434,Clyde River,90,CA,1538193600,79,70.47,-68.59,-2.0,9.3
435,Enid,90,US,1538196900,88,36.4,-97.88,19.0,3.1
436,Asyut,0,EG,1538193600,53,27.18,31.19,22.0,2.6
437,Nouadhibou,0,MR,1538193600,83,20.93,-17.03,22.0,6.7
438,Nizhniy Baskunchak,8,RU,1538197825,54,48.22,46.83,16.0,3.42
439,Wake Forest,1,US,1538196780,100,35.98,-78.51,21.0,1.07
440,Klaksvik,24,FO,1538196600,100,62.23,-6.59,9.0,7.2
441,Vitim,8,RU,1538197825,75,59.44,112.57,10.06,1.42
442,Dhidhdhoo,76,MV,1538197825,100,6.88,73.1,27.56,6.57
443,Arica,90,CL,1538193600,72,-18.48,-70.32,17.0,1.5
444,Huarmey,0,PE,1538197647,85,-10.07,-78.15,12.75,1.52
445,Longonjo,36,AO,1538197826,75,-12.91,15.25,17.36,0.77
446,Eureka,90,US,1538195700,82,40.8,-124.16,15.0,1.32
447,Kalmunai,64,LK,1538197826,81,7.42,81.82,28.81,1.32
448,Mrkonjic Grad,0,BA,1538195400,93,44.42,17.09,6.0,1.5
449,Southbridge,20,US,1538196960,96,42.08,-72.03,14.4,1.77
450,Taltal,0,CL,1538197846,98,-25.41,-70.49,9.16,0.42
451,Delijan,0,IR,1538197846,34,33.99,50.69,20.0,1.22
452,Namwala,0,ZM,1538197847,41,-15.75,26.45,24.06,4.22
453,Alice Springs,0,AU,1538193600,19,-23.7,133.88,26.0,7.7
454,Yulara,0,AU,1538193600,20,-25.24,130.99,28.0,10.3
455,Tupik,0,RU,1538197847,52,54.43,119.94,13.5,1.62
456,Carlagan,12,PH,1538197847,87,14.97,122.05,30.31,7.27
457,Grand Forks,75,US,1538196900,85,47.91,-97.06,-2.0,2.1
458,Port Lincoln,0,AU,1538197847,89,-34.72,135.86,14.16,3.42
459,Balkanabat,0,TM,1538197847,35,39.51,54.36,25.61,1.22
460,Aksarka,24,RU,1538197848,97,66.56,67.8,6.81,6.92
461,Boda,64,BD,1538197848,98,26.2,88.56,27.21,2.42
462,Piploda,0,IN,1538197848,64,23.35,75.43,31.86,2.02
463,Vao,48,EE,1538197778,83,59.1,26.19,5.16,2.17
464,Ozuluama,92,MX,1538197848,100,21.12,-98.35,20.21,1.07
465,Kuryk,12,KZ,1538197848,61,43.18,51.68,18.91,6.92
466,vejalpur,0,IN,1538197200,55,23.01,72.52,32.0,1.5
467,Viedma,48,AR,1538197849,96,-40.81,-62.99,11.16,5.27
468,Kalemie,0,CD,1538197849,84,-5.95,29.2,27.06,5.02
469,Portland,1,US,1538196960,45,45.52,-122.67,21.7,0.87
470,Nakhon Phanom,75,LA,1538197200,66,17.4,104.79,30.0,2.1
471,Sioux Lookout,90,CA,1538194380,99,50.1,-91.92,0.0,3.6
472,Columbia,90,US,1538195700,63,38.95,-92.33,13.3,2.6
473,Tamiahua,80,MX,1538197850,100,21.28,-97.45,24.21,2.12
474,Vila,0,IT,1538196600,93,45.18,8.4,13.0,1.5
475,Hay River,90,CA,1538193600,64,60.82,-115.79,2.0,6.7
476,Iquitos,0,PE,1538193600,94,-3.75,-73.25,24.0,2.1
477,Oneonta,0,US,1538197636,86,42.45,-75.06,11.96,2.42
478,Soure,0,PT,1538193600,100,40.06,-8.63,14.0,0.5
479,Quatre Cocos,40,MU,1538193600,69,-20.21,57.76,24.0,4.6
480,Wakkanai,20,JP,1538193600,55,45.41,141.67,19.0,6.7
481,Kaeo,56,NZ,1538197851,56,-35.1,173.78,13.25,1.67
482,Khandyga,12,RU,1538197851,55,62.65,135.58,5.61,3.47
483,Davila,75,PH,1538193600,83,18.47,120.58,27.0,4.1
484,Arman,90,RU,1538195400,93,59.7,150.17,8.0,3.0
485,Beachwood,90,US,1538196960,64,41.46,-81.51,15.6,4.1
486,Kysyl-Syr,92,RU,1538197852,69,63.9,122.77,6.16,3.12
487,Jiwani,0,PK,1538197852,75,25.05,61.74,30.41,2.87
488,Mbala,0,ZM,1538197853,37,-8.85,31.37,22.31,5.87
489,Aracruz,20,BR,1538193600,88,-19.82,-40.27,24.0,2.6
490,Madimba,75,CM,1538193600,100,4.42,9.93,25.0,2.07
491,Saint-Georges,0,CA,1538197854,94,46.12,-70.67,10.56,2.62
492,Mocuba,0,MZ,1538197854,46,-16.84,36.99,28.91,1.87
493,Salinopolis,12,BR,1538197854,97,-0.61,-47.36,26.81,7.37
494,Muzhi,20,RU,1538197854,100,65.4,64.7,5.96,4.32
495,Atikokan,20,CA,1538197854,92,48.76,-91.62,-0.2,2.57
496,Gallipoli,20,IT,1538196600,73,40.06,18.0,21.0,5.1
497,Vilhena,32,BR,1538197855,94,-12.74,-60.15,21.66,0.92
498,Shchors,92,UA,1538197855,100,51.82,31.95,10.21,2.22
499,Ciudad Bolivar,24,VE,1538197854,85,8.12,-63.55,25.56,4.72
500,Alghero,0,IT,1538196600,100,40.56,8.32,11.0,0.5
501,Byron Bay,12,AU,1538193600,73,-28.65,153.62,23.0,8.7
502,Port Hueneme,90,US,1538195700,90,34.15,-119.2,18.9,2.6
503,Lakhna,0,IN,1538197876,46,26.65,79.15,35.56,1.87
504,Muros,32,ES,1538197200,100,42.77,-9.06,16.0,2.6
505,Bhunya,92,SZ,1538197876,82,-26.54,31.01,16.31,1.62
506,Dovers,92,VC,1538197876,100,12.88,-61.18,28.06,9.42
507,Yumen,36,CN,1538197876,23,40.29,97.04,17.91,7.57
508,Balsas,92,BR,1538197876,27,-7.53,-46.04,31.81,3.47
509,Saint Anthony,1,US,1538193360,5,43.97,-111.68,18.3,2.6
510,Esfahan,0,IR,1538195400,29,32.66,51.68,16.0,4.1
511,Abu Kamal,0,SY,1538197877,28,34.45,40.92,26.06,2.87
512,Laguna,0,MX,1538197776,77,27.52,-110.01,27.61,1.57
513,Konstantinovka,92,MD,1538197877,75,47.99,28.86,13.31,2.87
514,Barcelos,75,PT,1538195400,100,41.53,-8.62,15.0,1.5
515,Carutapera,44,BR,1538197878,86,-1.2,-46.02,25.56,4.82
516,Hovd,75,NO,1538196600,70,63.83,10.7,8.0,9.3
517,Soligalich,92,RU,1538197878,95,59.08,42.29,4.96,6.87
518,Geraldton,90,CA,1538196000,93,49.72,-86.95,2.0,2.6
519,Ishigaki,75,JP,1538193600,88,24.34,124.16,26.0,12.9
520,Chavakkad,40,IN,1538197200,74,10.53,76.05,29.0,3.1
521,Biltine,8,TD,1538197878,65,14.53,20.93,24.81,4.32
522,Saint-Francois,0,FR,1538197200,93,46.42,3.91,7.0,1.5
523,Pauini,8,BR,1538197879,93,-7.71,-67.0,24.21,1.12
524,Ambilobe,0,MG,1538197879,41,-13.19,49.05,27.21,6.72
525,Dragor,24,BG,1538197200,66,42.23,24.3,9.0,1.5
526,Batemans Bay,56,AU,1538197879,72,-35.71,150.18,13.31,2.67
527,Okha,48,RU,1538197880,65,53.59,142.95,11.56,6.62
528,Igrim,24,RU,1538197880,75,63.19,64.42,7.71,3.02
529,Ukiah,1,US,1538193360,67,39.15,-123.21,16.1,2.6
530,Hamilton,75,BM,1538193300,73,32.3,-64.78,25.0,1.5
531,Dalbandin,0,PK,1538197880,14,28.9,64.41,29.0,1.57
532,Kibaya,40,RW,1538195400,88,-2.2,30.56,17.0,1.5
533,Kamalia,0,PK,1538197881,61,30.73,72.64,32.66,2.07
534,Malumfashi,20,NG,1538197881,94,11.79,7.62,20.91,3.07
535,Misterbianco,75,IT,1538197200,72,37.52,15.01,19.0,3.1
536,Corrente,48,BR,1538197881,42,-17.45,-44.68,25.11,2.52
537,Diveyevo,68,RU,1538197881,87,55.04,43.25,6.0,3.42
538,Camabatela,12,AO,1538197882,95,-8.19,15.37,18.56,1.77
539,Grand-Lahou,92,CI,1538197882,92,5.24,-5.0,23.86,1.67
540,Hashtgerd,20,IR,1538195400,23,35.96,50.69,24.0,3.1
541,Ajuchitlan,75,MX,1538192460,82,20.72,-100.02,15.0,2.6
542,Matara,92,PE,1538197882,65,-13.74,-72.9,8.31,0.87
543,Log,0,IT,1538197200,76,45.62,13.84,21.0,2.1
544,Ponoka,90,CA,1538197380,93,52.68,-113.59,2.0,2.6
545,Chico,1,US,1538195700,35,39.73,-121.84,23.0,5.1
546,Livingston,1,US,1538193480,93,32.58,-88.19,20.6,1.07
547,Deputatskiy,88,RU,1538197650,90,69.3,139.9,-1.55,3.02
548,Baghdad,0,IQ,1538193600,33,33.3,44.38,22.0,2.6
549,Lardos,40,GR,1538196600,69,36.09,28.02,24.0,1.0
550,Iquique,90,CL,1538193600,77,-20.22,-70.14,17.0,2.1
551,Riyadh,0,SA,1538193600,13,24.63,46.72,27.0,1.5
552,Ontario,1,US,1538196000,56,34.07,-117.65,23.0,1.5
553,Zhuhai,20,CN,1538193600,37,40.71,112.04,10.0,7.0
554,Iwanai,8,JP,1538197904,98,42.97,140.51,17.21,1.22
555,Waddan,0,LY,1538197904,53,29.16,16.14,13.0,1.22
556,Pundaguitan,0,PH,1538197904,96,6.37,126.17,29.41,5.27
557,Erzin,0,TR,1538194800,78,36.95,36.2,24.0,3.6
558,Bastrop,90,US,1538195700,98,32.78,-91.91,20.6,1.32
559,Lodja,48,CD,1538197905,94,-3.52,23.6,22.66,1.42
560,Jinchang,8,CN,1538197905,41,38.52,102.19,14.31,4.62
561,Itatskiy,64,RU,1538197905,59,56.07,89.04,18.46,6.82
562,Lincoln,90,US,1538196840,79,40.8,-96.67,9.4,1.5
563,Aswan,0,EG,1538193600,22,24.09,32.9,31.0,3.1
564,Solnechnyy,0,RU,1538197905,49,50.72,136.64,18.71,1.57
565,Chongqing,40,CN,1538193600,78,29.56,106.55,22.0,1.0
566,Kalabo,0,ZM,1538197906,31,-15.0,22.67,23.75,4.37
567,Cockburn Town,32,TC,1538197906,97,21.46,-71.14,28.66,6.92
568,Ypsonas,0,CY,1538197200,83,34.69,32.96,26.0,3.1
569,Athabasca,48,CA,1538197906,61,54.72,-113.29,-0.1,3.92
570,Constitucion,92,MX,1538197769,100,23.99,-104.67,13.75,1.62
571,Richards Bay,76,ZA,1538197906,77,-28.77,32.06,20.91,4.32
572,Manado,20,ID,1538197200,46,1.49,124.85,34.0,4.1
